{
  "project": "Japan2026Map",
  "exportedAt": "2026-06-15T04:19:57.502Z",
  "modelCounts": {
    "Place": 152
  },
  "data": {
    "Place": [
      {
        "id": 2,
        "name": "Onyado Nono Kyotoshichijo",
        "address": "491番地 Zaimokucho, Shimogyo Ward, Kyoto, 600-8146, Japan",
        "latitude": 34.98906605581645,
        "longitude": 135.7623381345753,
        "wantToVisit": false,
        "createdAt": "2026-01-28T01:38:07.385Z",
        "updatedAt": "2026-01-28T01:38:07.385Z",
        "notes": null,
        "category": "hotels"
      },
      {
        "id": 3,
        "name": "Prostyle Ryokan Asakusa",
        "address": "Japan, 〒111-0033 Tokyo, Taito City, Hanakawado, 2 Chome−12−11 Prostyle 旅館 東京浅草",
        "latitude": 35.71441856144585,
        "longitude": 139.8008593979074,
        "wantToVisit": false,
        "createdAt": "2026-01-28T01:38:37.818Z",
        "updatedAt": "2026-01-28T01:38:37.818Z",
        "notes": null,
        "category": "hotels"
      },
      {
        "id": 4,
        "name": "Candeo Hotels Osaka The 69 Tower",
        "address": "1  Chome-1-27 Dojimahama, Kita Ward, Osaka, 530-0004, Japan",
        "latitude": 34.69542736235379,
        "longitude": 135.5005106676862,
        "wantToVisit": false,
        "createdAt": "2026-01-28T01:36:44.199Z",
        "updatedAt": "2026-02-05T16:17:10.772Z",
        "notes": "Adam’s Favorite Tower",
        "category": "hotels"
      },
      {
        "id": 5,
        "name": "Akashi-Kaikyo Bridge",
        "address": "4 Higashimaikocho, Tarumi-ku, Kobe, Hyogo 655-0047, Japan",
        "latitude": 34.61734002496242,
        "longitude": 135.0213522690059,
        "wantToVisit": false,
        "createdAt": "2026-01-28T01:39:23.013Z",
        "updatedAt": "2026-01-28T01:39:23.013Z",
        "notes": null,
        "category": "entertainment"
      },
      {
        "id": 6,
        "name": "Akihabara",
        "address": "Taito City, Tokyo 110-0006",
        "latitude": 35.70207685746768,
        "longitude": 139.7750959718985,
        "wantToVisit": true,
        "createdAt": "2026-01-28T01:40:04.811Z",
        "updatedAt": "2026-01-28T01:40:04.811Z",
        "notes": null,
        "category": "entertainment"
      },
      {
        "id": 7,
        "name": "Arashio-beya Sumo Stable",
        "address": "2 Chome-47-2 Nihonbashihamacho, Chuo City, Tokyo 103-0007, Japan",
        "latitude": 35.68685891717774,
        "longitude": 139.7884463406484,
        "wantToVisit": false,
        "createdAt": "2026-01-28T01:40:59.401Z",
        "updatedAt": "2026-01-28T01:40:59.401Z",
        "notes": null,
        "category": "entertainment"
      },
      {
        "id": 8,
        "name": "Arashiyama Bamboo Forest",
        "address": "Sagaogurayama Tabuchiyamacho, Ukyo Ward, Kyoto, 616-8394, Japan",
        "latitude": 35.01679231258549,
        "longitude": 135.6713120267281,
        "wantToVisit": false,
        "createdAt": "2026-01-28T01:41:29.280Z",
        "updatedAt": "2026-01-28T01:41:29.280Z",
        "notes": null,
        "category": "entertainment"
      },
      {
        "id": 9,
        "name": "Asakusa Culture Tourist Information Center (Observatory - 8F)",
        "address": "Japan, 〒111-0034 Tokyo, Taito City, Kaminarimon, 2 Chome−18−9 浅草文化観光センタ",
        "latitude": 35.71072043989144,
        "longitude": 139.7965246402341,
        "wantToVisit": false,
        "createdAt": "2026-01-28T01:49:04.501Z",
        "updatedAt": "2026-01-28T01:49:25.370Z",
        "notes": null,
        "category": "entertainment"
      },
      {
        "id": 10,
        "name": "Cool Tan Guy Shrine",
        "address": "1f, 16-4 Kamiyamacho, Shibuya, Tokyo 150-0047, Japan",
        "latitude": 35.66315403912802,
        "longitude": 139.6941799402331,
        "wantToVisit": true,
        "createdAt": "2026-01-28T01:50:20.413Z",
        "updatedAt": "2026-01-28T01:50:20.413Z",
        "notes": null,
        "category": "entertainment"
      },
      {
        "id": 11,
        "name": "Daitoku-ji Temple",
        "address": "53 Murasakino Daitokujicho, Kita Ward, Kyoto, 603-8231, Japan",
        "latitude": 35.04391732429287,
        "longitude": 135.7460192690559,
        "wantToVisit": false,
        "createdAt": "2026-01-28T01:50:43.637Z",
        "updatedAt": "2026-01-28T01:50:43.637Z",
        "notes": null,
        "category": "entertainment"
      },
      {
        "id": 12,
        "name": "Deer Park",
        "address": "160-1 Kasuganocho, Nara, 630-8212, Japan",
        "latitude": 34.68102817448609,
        "longitude": 135.8430514207767,
        "wantToVisit": true,
        "createdAt": "2026-01-28T01:51:10.780Z",
        "updatedAt": "2026-01-28T01:51:10.780Z",
        "notes": null,
        "category": "entertainment"
      },
      {
        "id": 13,
        "name": "Diorama Cat Shelter & Café",
        "address": "Japan, 〒543-0045 Osaka, Tennoji Ward, Teradacho, 2 Chome−5−1 石村ビル 1F",
        "latitude": 34.64925387294186,
        "longitude": 135.5243774690466,
        "wantToVisit": false,
        "createdAt": "2026-01-28T01:51:30.036Z",
        "updatedAt": "2026-01-28T01:51:30.036Z",
        "notes": null,
        "category": "entertainment"
      },
      {
        "id": 14,
        "name": "Ebara Shrine (Cherry Blossom)",
        "address": "2 Chome-30-28 Kitashinagawa, Shinagawa City, Tokyo 140-0001, Japan",
        "latitude": 35.61701660199301,
        "longitude": 139.7433843282245,
        "wantToVisit": false,
        "createdAt": "2026-01-28T01:53:32.859Z",
        "updatedAt": "2026-01-28T01:53:32.859Z",
        "notes": null,
        "category": "entertainment"
      },
      {
        "id": 15,
        "name": "Edo-Tokyo Open Air Architectural Museum (Zen'in Clan)",
        "address": "Japan, 〒184-0005 Tokyo, Koganei, Sakuracho, 3 Chome−7−1 内 都立小金井公園",
        "latitude": 35.71561572761278,
        "longitude": 139.5125648555805,
        "wantToVisit": false,
        "createdAt": "2026-01-28T01:54:20.800Z",
        "updatedAt": "2026-01-28T01:54:20.800Z",
        "notes": null,
        "category": "entertainment"
      },
      {
        "id": 16,
        "name": "Friday 21 Nail Salon",
        "address": "Japan, 〒542-0081 Osaka, Chuo Ward, Minamisenba, 3 Chome−7−27 Nlc心斎橋 5階K",
        "latitude": 34.67743650693426,
        "longitude": 135.5017453669752,
        "wantToVisit": false,
        "createdAt": "2026-01-28T01:54:44.944Z",
        "updatedAt": "2026-01-28T01:54:44.944Z",
        "notes": null,
        "category": "entertainment"
      },
      {
        "id": 17,
        "name": "Fujisan Yume No Ōhashi Bridge",
        "address": "Tadehara, Fuji, Shizuoka 416-0931, Japan",
        "latitude": 35.1514570523851,
        "longitude": 138.6760551566533,
        "wantToVisit": true,
        "createdAt": "2026-01-28T01:55:28.991Z",
        "updatedAt": "2026-02-12T00:15:46.027Z",
        "notes": null,
        "category": "entertainment"
      },
      {
        "id": 18,
        "name": "Funabori Tower Observatory",
        "address": "4 Chome-1 Funabori, Edogawa City, Tokyo 134-0091, Japan",
        "latitude": 35.68454177258977,
        "longitude": 139.8644985267431,
        "wantToVisit": false,
        "createdAt": "2026-01-28T01:55:51.703Z",
        "updatedAt": "2026-01-28T01:55:51.703Z",
        "notes": null,
        "category": "entertainment"
      },
      {
        "id": 19,
        "name": "Fushimi Inari Taisha (Temple/Shrine)",
        "address": "68 Fukakusa Yabunouchicho, Fushimi Ward, Kyoto, 612-0882, Japan",
        "latitude": 34.96769447282976,
        "longitude": 135.7791875978906,
        "wantToVisit": false,
        "createdAt": "2026-01-28T01:56:16.734Z",
        "updatedAt": "2026-01-28T01:56:16.734Z",
        "notes": null,
        "category": "entertainment"
      },
      {
        "id": 20,
        "name": "Ginkaku-ji (Temple)",
        "address": "2 Ginkakujicho, Sakyo Ward, Kyoto, 606-8402, Japan",
        "latitude": 35.02701248716409,
        "longitude": 135.7982057978918,
        "wantToVisit": false,
        "createdAt": "2026-01-28T01:56:44.002Z",
        "updatedAt": "2026-01-28T01:56:44.002Z",
        "notes": null,
        "category": "entertainment"
      },
      {
        "id": 21,
        "name": "Godzilla Head",
        "address": "1 Chome-19-1 Kabukicho, Shinjuku City, Tokyo 160-0021, Japan",
        "latitude": 35.69505001628642,
        "longitude": 139.7019086864153,
        "wantToVisit": true,
        "createdAt": "2026-01-28T01:58:55.177Z",
        "updatedAt": "2026-01-28T01:58:55.177Z",
        "notes": null,
        "category": "entertainment"
      },
      {
        "id": 22,
        "name": "2425番2号 Kusumoto, Awaji, Hyogo 656-2301, Japan",
        "address": "2425番2号 Kusumoto, Awaji, Hyogo 656-2301, Japan",
        "latitude": 34.57362558974331,
        "longitude": 135.0001312378467,
        "wantToVisit": false,
        "createdAt": "2026-01-28T01:59:35.892Z",
        "updatedAt": "2026-01-28T01:59:35.892Z",
        "notes": null,
        "category": "entertainment"
      },
      {
        "id": 23,
        "name": "Shinjuku Golden-Gai (Drinks)",
        "address": "Japan, 〒160-0021 Tokyo, Shinjuku City, Kabukicho, 1 Chome−1−6 あかるい花園 五番街",
        "latitude": 35.6941675310602,
        "longitude": 139.7047726512491,
        "wantToVisit": false,
        "createdAt": "2026-01-28T02:00:03.076Z",
        "updatedAt": "2026-01-28T02:00:03.076Z",
        "notes": null,
        "category": "entertainment"
      },
      {
        "id": 24,
        "name": "Great Ginkgo Tree",
        "address": "2 Chome-1 Yukinoshita, Kamakura, Kanagawa 248-0005, Japan",
        "latitude": 35.32576431929073,
        "longitude": 139.5560589267349,
        "wantToVisit": false,
        "createdAt": "2026-01-28T02:00:21.983Z",
        "updatedAt": "2026-01-28T02:00:21.983Z",
        "notes": null,
        "category": "entertainment"
      },
      {
        "id": 25,
        "name": "Hachiko Statue (Dog)",
        "address": "2 Chome-1 Dogenzaka, Shibuya, Tokyo 150-0043, Japan",
        "latitude": 35.65905876555698,
        "longitude": 139.7006241512504,
        "wantToVisit": false,
        "createdAt": "2026-01-28T02:00:52.172Z",
        "updatedAt": "2026-01-28T02:00:52.172Z",
        "notes": null,
        "category": "entertainment"
      },
      {
        "id": 26,
        "name": "Hanamikoji Street",
        "address": "Higashiyama Ward, Kyoto, Japan",
        "latitude": 35.00549695129239,
        "longitude": 135.7752334335792,
        "wantToVisit": false,
        "createdAt": "2026-01-28T02:01:26.277Z",
        "updatedAt": "2026-01-28T02:01:26.277Z",
        "notes": null,
        "category": "entertainment"
      },
      {
        "id": 27,
        "name": "Heian-jingū Shrine",
        "address": "97 Okazaki Nishitennocho, Sakyo Ward, Kyoto, 606-8341, Japan",
        "latitude": 35.01595584221634,
        "longitude": 135.7824370146331,
        "wantToVisit": false,
        "createdAt": "2026-01-28T02:01:46.616Z",
        "updatedAt": "2026-01-28T02:01:46.616Z",
        "notes": null,
        "category": "entertainment"
      },
      {
        "id": 28,
        "name": "Hokoku Shrine",
        "address": "2-1 Osakajo, Chuo Ward, Osaka, 540-0002, Japan",
        "latitude": 34.68425281711536,
        "longitude": 135.5268277402115,
        "wantToVisit": false,
        "createdAt": "2026-01-28T02:02:13.476Z",
        "updatedAt": "2026-01-28T02:02:13.476Z",
        "notes": null,
        "category": "entertainment"
      },
      {
        "id": 29,
        "name": "Isuien Garden and Neiraku Museum",
        "address": "74 Suimoncho, Nara, 630-8208, Japan",
        "latitude": 34.6860369125114,
        "longitude": 135.8371797600122,
        "wantToVisit": false,
        "createdAt": "2026-01-28T02:03:16.613Z",
        "updatedAt": "2026-01-28T02:03:16.613Z",
        "notes": null,
        "category": "entertainment"
      },
      {
        "id": 30,
        "name": "Kabukicho",
        "address": "Shinjuku City, Tokyo 160-0021",
        "latitude": 35.69612618470317,
        "longitude": 139.7028028869418,
        "wantToVisit": false,
        "createdAt": "2026-01-28T02:03:55.941Z",
        "updatedAt": "2026-01-28T02:03:55.941Z",
        "notes": null,
        "category": "entertainment"
      },
      {
        "id": 31,
        "name": "Kaminarimon (Shrine)",
        "address": "Taito City, Tokyo 111-0034",
        "latitude": 35.71041905629655,
        "longitude": 139.79616607123,
        "wantToVisit": false,
        "createdAt": "2026-01-28T02:04:25.429Z",
        "updatedAt": "2026-01-28T02:04:25.429Z",
        "notes": null,
        "category": "entertainment"
      },
      {
        "id": 32,
        "name": "Kasugataisha Shrine",
        "address": "160 Kasuganocho, Nara, 630-8212, Japan",
        "latitude": 34.68154537293045,
        "longitude": 135.848482626721,
        "wantToVisit": false,
        "createdAt": "2026-01-28T02:04:48.659Z",
        "updatedAt": "2026-01-28T02:04:48.659Z",
        "notes": null,
        "category": "entertainment"
      },
      {
        "id": 33,
        "name": "Kasumigaseki Building (Death Note)",
        "address": "3 Chome-2-5 Kasumigaseki, Chiyoda City, Tokyo 100-6001, Japan",
        "latitude": 35.6712356151769,
        "longitude": 139.7471812807172,
        "wantToVisit": false,
        "createdAt": "2026-01-28T02:05:13.494Z",
        "updatedAt": "2026-01-28T02:05:13.494Z",
        "notes": null,
        "category": "entertainment"
      },
      {
        "id": 34,
        "name": "Katsuoji Temple",
        "address": "2914-1 Aomatani, Minoh, Osaka 562-8508, Japan",
        "latitude": 34.86580158168114,
        "longitude": 135.4910762690517,
        "wantToVisit": true,
        "createdAt": "2026-01-28T02:05:37.201Z",
        "updatedAt": "2026-01-28T02:05:37.201Z",
        "notes": null,
        "category": "entertainment"
      },
      {
        "id": 35,
        "name": "Kawaji Cherry Trees",
        "address": "Horencho, Nara, 630-8113, Japan",
        "latitude": 34.68903377840788,
        "longitude": 135.8187553900892,
        "wantToVisit": false,
        "createdAt": "2026-01-28T02:06:00.725Z",
        "updatedAt": "2026-01-28T02:06:00.725Z",
        "notes": null,
        "category": "entertainment"
      },
      {
        "id": 36,
        "name": "Kenninji Temple",
        "address": "Japan, 〒605-0811 Kyoto, Higashiyama Ward, Komatsucho, ５８４番地",
        "latitude": 35.00005384990448,
        "longitude": 135.773573926728,
        "wantToVisit": false,
        "createdAt": "2026-01-28T02:06:19.651Z",
        "updatedAt": "2026-01-28T02:06:19.651Z",
        "notes": null,
        "category": "entertainment"
      },
      {
        "id": 37,
        "name": "Kichijōji Petit Mura (Cat Village)",
        "address": "Japan, 〒180-0004 Tokyo, Musashino, Kichijoji Honcho, 2 Chome−33−2 吉祥寺プティット村",
        "latitude": 35.70461719699804,
        "longitude": 139.5746991267437,
        "wantToVisit": false,
        "createdAt": "2026-01-28T02:06:45.661Z",
        "updatedAt": "2026-01-28T02:06:45.661Z",
        "notes": null,
        "category": "entertainment"
      },
      {
        "id": 38,
        "name": "Kinkaku-ji (Temple)",
        "address": "1 Kinkakujicho, Kita Ward, Kyoto, 603-8361, Japan",
        "latitude": 35.03936990268453,
        "longitude": 135.729253814637,
        "wantToVisit": false,
        "createdAt": "2026-01-28T02:07:57.609Z",
        "updatedAt": "2026-01-28T02:07:57.609Z",
        "notes": null,
        "category": "entertainment"
      },
      {
        "id": 39,
        "name": "Kiyomizu-dera (Temple)",
        "address": "1 Chome-294 Kiyomizu, Higashiyama Ward, Kyoto, 605-0862, Japan",
        "latitude": 34.99467496194069,
        "longitude": 135.7846717267275,
        "wantToVisit": false,
        "createdAt": "2026-01-28T02:08:22.040Z",
        "updatedAt": "2026-01-28T02:08:22.040Z",
        "notes": null,
        "category": "entertainment"
      },
      {
        "id": 40,
        "name": "Kobe Bridge (Fate)",
        "address": "Japan, Hyogo, Kobe, Chuo Ward, 神戸大橋",
        "latitude": 34.67835281456237,
        "longitude": 135.203412809978,
        "wantToVisit": false,
        "createdAt": "2026-01-28T02:08:58.031Z",
        "updatedAt": "2026-01-28T02:08:58.031Z",
        "notes": null,
        "category": "entertainment"
      },
      {
        "id": 41,
        "name": "Kōdaiji Temple",
        "address": "Japan, 〒605-0825 Kyoto, Higashiyama Ward, 高台寺下河原町５２６",
        "latitude": 35.0007686728185,
        "longitude": 135.7812610690548,
        "wantToVisit": false,
        "createdAt": "2026-01-28T02:09:18.930Z",
        "updatedAt": "2026-01-28T02:09:18.930Z",
        "notes": null,
        "category": "entertainment"
      },
      {
        "id": 42,
        "name": "Kōfuku-ji (Temple)",
        "address": "48 Noboriojicho, Nara, 630-8213, Japan",
        "latitude": 34.68322659191289,
        "longitude": 135.8311374280677,
        "wantToVisit": false,
        "createdAt": "2026-01-28T02:09:38.787Z",
        "updatedAt": "2026-01-28T02:09:38.787Z",
        "notes": null,
        "category": "entertainment"
      },
      {
        "id": 43,
        "name": "Lawson Fujikawaguchiko Town hall",
        "address": "1395-1 Funatsu, Fujikawaguchiko, Minamitsuru District, Yamanashi 401-0301, Japan",
        "latitude": 35.49852857265049,
        "longitude": 138.7563801267389,
        "wantToVisit": true,
        "createdAt": "2026-01-28T02:10:04.029Z",
        "updatedAt": "2026-01-28T02:10:04.029Z",
        "notes": null,
        "category": "entertainment"
      },
      {
        "id": 44,
        "name": "Meiji Jingu",
        "address": "1-1 Yoyogikamizonocho, Shibuya, Tokyo 151-8557, Japan",
        "latitude": 35.67638885730298,
        "longitude": 139.6993151690697,
        "wantToVisit": false,
        "createdAt": "2026-01-28T02:11:08.175Z",
        "updatedAt": "2026-01-28T02:11:08.175Z",
        "notes": null,
        "category": "entertainment"
      },
      {
        "id": 45,
        "name": "Minoh Falls",
        "address": "2-2 Minookoen, Minoh, Osaka 562-0002, Japan",
        "latitude": 34.85385448552141,
        "longitude": 135.4720018267245,
        "wantToVisit": false,
        "createdAt": "2026-01-28T02:11:29.857Z",
        "updatedAt": "2026-01-28T02:11:29.857Z",
        "notes": null,
        "category": "entertainment"
      },
      {
        "id": 46,
        "name": "Miyashita Park",
        "address": "6 Chome-20-10 Jingumae, Shibuya, Tokyo 150-0001, Japan",
        "latitude": 35.66176918038434,
        "longitude": 139.7018077825597,
        "wantToVisit": false,
        "createdAt": "2026-01-28T02:11:52.049Z",
        "updatedAt": "2026-01-28T02:11:52.049Z",
        "notes": null,
        "category": "entertainment"
      },
      {
        "id": 47,
        "name": "Namiyoke Shrine",
        "address": "6 Chome-20-37 Tsukiji, Chuo City, Tokyo 104-0045, Japan",
        "latitude": 35.66363624789825,
        "longitude": 139.7714604095403,
        "wantToVisit": false,
        "createdAt": "2026-01-28T02:12:10.028Z",
        "updatedAt": "2026-01-28T02:12:10.028Z",
        "notes": null,
        "category": "entertainment"
      },
      {
        "id": 48,
        "name": "Nanzen-ji",
        "address": "86 Nanzenji Fukuchicho, Sakyo Ward, Kyoto, 606-8435, Japan",
        "latitude": 35.01140498549244,
        "longitude": 135.7944948267281,
        "wantToVisit": false,
        "createdAt": "2026-01-28T02:12:28.926Z",
        "updatedAt": "2026-01-28T02:12:28.926Z",
        "notes": null,
        "category": "entertainment"
      },
      {
        "id": 49,
        "name": "Nara Park",
        "address": "MRPV+26 Nara, Japan",
        "latitude": 34.68502484752014,
        "longitude": 135.8430119857413,
        "wantToVisit": true,
        "createdAt": "2026-01-28T02:13:02.704Z",
        "updatedAt": "2026-01-28T02:13:02.704Z",
        "notes": null,
        "category": "entertainment"
      },
      {
        "id": 50,
        "name": "Nijigen no Mori Naruto x Boruto Shinobi Village",
        "address": "2425番2号 Kusumoto, Awaji, Hyogo 656-2301, Japan",
        "latitude": 34.57557897296805,
        "longitude": 135.004602697882,
        "wantToVisit": true,
        "createdAt": "2026-01-28T02:13:35.640Z",
        "updatedAt": "2026-01-28T02:13:35.640Z",
        "notes": null,
        "category": "entertainment"
      },
      {
        "id": 51,
        "name": "Nezu Shrine",
        "address": "1 Chome-28-9 Nezu, Bunkyo City, Tokyo 113-0031, Japan",
        "latitude": 35.72011915155651,
        "longitude": 139.7607694979075,
        "wantToVisit": false,
        "createdAt": "2026-01-28T02:14:16.193Z",
        "updatedAt": "2026-01-28T02:14:16.193Z",
        "notes": null,
        "category": "entertainment"
      },
      {
        "id": 52,
        "name": "Nijō Castle",
        "address": "541 Nijojocho, Nakagyo Ward, Kyoto, 604-8301, Japan",
        "latitude": 35.01408620151868,
        "longitude": 135.7484472555645,
        "wantToVisit": false,
        "createdAt": "2026-01-28T02:14:35.300Z",
        "updatedAt": "2026-01-28T02:14:35.300Z",
        "notes": null,
        "category": "entertainment"
      },
      {
        "id": 53,
        "name": "Ninenzaka",
        "address": "Japan, 〒605-0826 Kyoto, Higashiyama Ward, Masuyacho, 清水2丁目363-12",
        "latitude": 34.99816910988307,
        "longitude": 135.7808459772912,
        "wantToVisit": false,
        "createdAt": "2026-01-28T02:14:55.660Z",
        "updatedAt": "2026-01-28T02:14:55.660Z",
        "notes": null,
        "category": "entertainment"
      },
      {
        "id": 54,
        "name": "Nishiki Market",
        "address": "Nakagyo Ward, Kyoto, 604-8055, Japan",
        "latitude": 35.005008196799,
        "longitude": 135.7647229978915,
        "wantToVisit": true,
        "createdAt": "2026-01-28T02:15:14.946Z",
        "updatedAt": "2026-01-28T02:15:14.946Z",
        "notes": null,
        "category": "entertainment"
      },
      {
        "id": 55,
        "name": "Odaiba Seaside Park",
        "address": "1 Chome-4 Daiba, Minato City, Tokyo 135-0091, Japan",
        "latitude": 35.63004005225919,
        "longitude": 139.7757019267418,
        "wantToVisit": false,
        "createdAt": "2026-01-28T02:16:06.512Z",
        "updatedAt": "2026-01-28T02:16:06.512Z",
        "notes": null,
        "category": "entertainment"
      },
      {
        "id": 56,
        "name": "Oishi Park (Lilli Want)",
        "address": "２５２５番地の１１先 Oishi, Fujikawaguchiko, Minamitsuru District, Yamanashi 401-0305, Japan",
        "latitude": 35.52290397264256,
        "longitude": 138.7457307402297,
        "wantToVisit": true,
        "createdAt": "2026-01-28T02:16:41.420Z",
        "updatedAt": "2026-01-28T02:16:41.420Z",
        "notes": null,
        "category": "entertainment"
      },
      {
        "id": 57,
        "name": "Okochi Sanso Garden",
        "address": "8 Sagaogurayama Tabuchiyamacho, Ukyo Ward, Kyoto, 616-8394, Japan",
        "latitude": 35.01673224631548,
        "longitude": 135.6699226978916,
        "wantToVisit": false,
        "createdAt": "2026-01-28T02:17:07.460Z",
        "updatedAt": "2026-01-28T02:17:07.460Z",
        "notes": null,
        "category": "entertainment"
      },
      {
        "id": 58,
        "name": "Osaka Aquarium Kaiyukan",
        "address": "1 Chome-1-10 Kaigandori, Minato Ward, Osaka, 552-0022, Japan",
        "latitude": 34.65451376019264,
        "longitude": 135.4289430402106,
        "wantToVisit": false,
        "createdAt": "2026-01-28T02:17:29.776Z",
        "updatedAt": "2026-01-28T02:17:29.776Z",
        "notes": null,
        "category": "entertainment"
      },
      {
        "id": 59,
        "name": "Peach Grove",
        "address": "1 Chome-1-17 Katamachi, 都島区 Osaka, 540-0002, Japan",
        "latitude": 34.69098919453611,
        "longitude": 135.5265608978845,
        "wantToVisit": false,
        "createdAt": "2026-01-28T02:17:52.317Z",
        "updatedAt": "2026-01-28T02:17:52.317Z",
        "notes": null,
        "category": "entertainment"
      },
      {
        "id": 60,
        "name": "Philosopher's Path (Tetsugaku no Michi)",
        "address": "Shishigatani Teranomaecho, Sakyo Ward, Kyoto, 606-8426, Japan",
        "latitude": 35.02662815849687,
        "longitude": 135.7954248113816,
        "wantToVisit": false,
        "createdAt": "2026-01-28T02:18:22.650Z",
        "updatedAt": "2026-01-28T02:18:22.650Z",
        "notes": null,
        "category": "entertainment"
      },
      {
        "id": 61,
        "name": "Plum Grove",
        "address": "Kyotogyoen, Kamigyo Ward, Kyoto, 602-0881, Japan",
        "latitude": 35.021615092344,
        "longitude": 135.7601407416406,
        "wantToVisit": false,
        "createdAt": "2026-01-28T02:18:51.680Z",
        "updatedAt": "2026-01-28T02:18:51.680Z",
        "notes": null,
        "category": "entertainment"
      },
      {
        "id": 62,
        "name": "Pokémon Center Osaka",
        "address": "Japan, 〒530-8202 Osaka, Kita Ward, Umeda, 3 Chome−1−1 大丸梅田店 13F",
        "latitude": 34.70188340796025,
        "longitude": 135.4965485090242,
        "wantToVisit": true,
        "createdAt": "2026-01-28T02:19:22.013Z",
        "updatedAt": "2026-01-28T02:19:22.013Z",
        "notes": null,
        "category": "entertainment"
      },
      {
        "id": 63,
        "name": "Pokemon Center Osaka DX",
        "address": "Japan, 〒542-8501 Osaka, Chuo Ward, Shinsaibashisuji, 1 Chome−7−1 Main Building, 9F Daimaru Shinsaibashi",
        "latitude": 34.67322484102726,
        "longitude": 135.5007115854987,
        "wantToVisit": true,
        "createdAt": "2026-01-28T02:19:38.421Z",
        "updatedAt": "2026-01-28T02:19:38.421Z",
        "notes": null,
        "category": "entertainment"
      },
      {
        "id": 64,
        "name": "Pokémon Center Tokyo DX",
        "address": "Japan, 〒103-0027 Tokyo, Chuo City, Nihonbashi, 2 Chome−11−2 髙島屋S.C.東館 5F",
        "latitude": 35.68027121070144,
        "longitude": 139.7742389947616,
        "wantToVisit": true,
        "createdAt": "2026-01-28T02:20:05.821Z",
        "updatedAt": "2026-01-28T02:20:05.821Z",
        "notes": null,
        "category": "entertainment"
      },
      {
        "id": 65,
        "name": "Pokémon Center Skytree Town Solamachi East Yard 4th floor",
        "address": "Japan, 〒131-0045 Tokyo, Sumida City, Oshiage, 1 Chome−1−2 東京スカイツリータウン・ソラマチ イーストヤード4F",
        "latitude": 35.71034337607708,
        "longitude": 139.812611507526,
        "wantToVisit": true,
        "createdAt": "2026-01-28T02:20:34.130Z",
        "updatedAt": "2026-01-28T02:20:34.130Z",
        "notes": null,
        "category": "entertainment"
      },
      {
        "id": 66,
        "name": "Pontocho Alley",
        "address": "Nakagyo Ward, Kyoto, 604-8014, Japan",
        "latitude": 35.00392567732325,
        "longitude": 135.7710379916062,
        "wantToVisit": false,
        "createdAt": "2026-01-28T02:20:57.563Z",
        "updatedAt": "2026-01-28T02:20:57.563Z",
        "notes": null,
        "category": "entertainment"
      },
      {
        "id": 67,
        "name": "Sannenzaka",
        "address": "2 Chome-211 Kiyomizu, Higashiyama Ward, Kyoto, 605-0862, Japan",
        "latitude": 34.99666471264834,
        "longitude": 135.7810051937959,
        "wantToVisit": false,
        "createdAt": "2026-01-28T02:21:19.788Z",
        "updatedAt": "2026-01-28T02:21:19.788Z",
        "notes": null,
        "category": "entertainment"
      },
      {
        "id": 68,
        "name": "Sensō-ji Temple",
        "address": "2 Chome-3-1 Asakusa, Taito City, Tokyo 111-0032, Japan",
        "latitude": 35.71476071703159,
        "longitude": 139.7966552979072,
        "wantToVisit": false,
        "createdAt": "2026-01-28T02:21:39.218Z",
        "updatedAt": "2026-01-28T02:21:39.218Z",
        "notes": null,
        "category": "entertainment"
      },
      {
        "id": 69,
        "name": "Shibuya Crossing",
        "address": "MP52+Q6 Shibuya, Tokyo, Japan",
        "latitude": 35.65947325546146,
        "longitude": 139.7005703267425,
        "wantToVisit": false,
        "createdAt": "2026-01-28T02:22:03.333Z",
        "updatedAt": "2026-01-28T02:22:03.333Z",
        "notes": null,
        "category": "entertainment"
      },
      {
        "id": 70,
        "name": "Shibuya Scramble Square (Observatory - 12F)",
        "address": "2 Chome-24-12 Shibuya, Tokyo 150-0002, Japan",
        "latitude": 35.65845505535058,
        "longitude": 139.7022728267426,
        "wantToVisit": false,
        "createdAt": "2026-01-28T02:22:55.708Z",
        "updatedAt": "2026-01-28T02:22:55.708Z",
        "notes": null,
        "category": "entertainment"
      },
      {
        "id": 71,
        "name": "Shibuya Hikarie Sky Lobby (Observatory - 11F)",
        "address": "Japan, 〒150-0002 Tokyo, Shibuya, 2 Chome−21, スカイロビ",
        "latitude": 35.65898035540796,
        "longitude": 139.7034030267425,
        "wantToVisit": false,
        "createdAt": "2026-01-28T02:22:25.598Z",
        "updatedAt": "2026-01-28T02:23:16.176Z",
        "notes": null,
        "category": "entertainment"
      },
      {
        "id": 72,
        "name": "Shimononegi-michi Pathway",
        "address": "160-7 Kasuganocho, Nara, 630-8212, Japan",
        "latitude": 34.6798105957318,
        "longitude": 135.8458028267207,
        "wantToVisit": false,
        "createdAt": "2026-01-28T02:23:38.669Z",
        "updatedAt": "2026-01-28T02:23:38.669Z",
        "notes": null,
        "category": "entertainment"
      },
      {
        "id": 73,
        "name": "Tokyo Skytree",
        "address": "1 Chome-1-2 Oshiage, Sumida City, Tokyo 131-0045, Japan",
        "latitude": 35.71002347032171,
        "longitude": 139.8106789402339,
        "wantToVisit": false,
        "createdAt": "2026-01-28T02:24:03.004Z",
        "updatedAt": "2026-01-28T02:24:03.004Z",
        "notes": null,
        "category": "entertainment"
      },
      {
        "id": 74,
        "name": "Solaniwa Onsen",
        "address": "1 Chome-2-3 Benten, Minato Ward, Osaka, 552-0007, Japan",
        "latitude": 34.67035334645449,
        "longitude": 135.4595663026192,
        "wantToVisit": false,
        "createdAt": "2026-01-28T03:18:04.869Z",
        "updatedAt": "2026-01-28T03:18:04.869Z",
        "notes": null,
        "category": "entertainment"
      },
      {
        "id": 75,
        "name": "Suga Shrine Otokodan (Your Name Stairs)",
        "address": "5-6 Sugacho, Shinjuku City, Tokyo 160-0018, Japan",
        "latitude": 35.68505772187677,
        "longitude": 139.7233142936965,
        "wantToVisit": true,
        "createdAt": "2026-01-28T03:18:32.886Z",
        "updatedAt": "2026-01-28T03:18:32.886Z",
        "notes": null,
        "category": "entertainment"
      },
      {
        "id": 76,
        "name": "Takeshita Street",
        "address": "1 Chome-16-6 Jingumae, Shibuya, Tokyo 150-0001, Japan",
        "latitude": 35.67126945520099,
        "longitude": 139.7046798545834,
        "wantToVisit": false,
        "createdAt": "2026-01-28T03:19:09.081Z",
        "updatedAt": "2026-01-28T03:19:09.081Z",
        "notes": null,
        "category": "entertainment"
      },
      {
        "id": 77,
        "name": "teamLab Planets",
        "address": "6 Chome-1-16 Toyosu, Koto City, Tokyo 135-0061, Japan",
        "latitude": 35.64908136974449,
        "longitude": 139.7897953435762,
        "wantToVisit": false,
        "createdAt": "2026-01-28T03:19:32.486Z",
        "updatedAt": "2026-01-28T03:19:32.486Z",
        "notes": null,
        "category": "entertainment"
      },
      {
        "id": 78,
        "name": "Tenryūji Temple",
        "address": "4 Chome-2-17 Minamishinagawa, Shinagawa City, Tokyo 140-0004, Japan",
        "latitude": 35.61445629466169,
        "longitude": 139.7397650690686,
        "wantToVisit": false,
        "createdAt": "2026-01-28T03:19:58.768Z",
        "updatedAt": "2026-01-28T03:19:58.768Z",
        "notes": null,
        "category": "entertainment"
      },
      {
        "id": 79,
        "name": "Tōdai-ji",
        "address": "406-1 Zoshicho, Nara, 630-8587, Japan",
        "latitude": 34.68897625110472,
        "longitude": 135.8398050690479,
        "wantToVisit": false,
        "createdAt": "2026-01-28T03:20:45.389Z",
        "updatedAt": "2026-01-28T03:20:45.389Z",
        "notes": null,
        "category": "entertainment"
      },
      {
        "id": 80,
        "name": "Togetsukyō Bridge",
        "address": "1-5 Sagatenryuji Susukinobabacho, Ukyo Ward, Kyoto, 616-8384, Japan",
        "latitude": 35.01286808564903,
        "longitude": 135.6777640690549,
        "wantToVisit": false,
        "createdAt": "2026-01-28T03:21:04.689Z",
        "updatedAt": "2026-01-28T03:21:04.689Z",
        "notes": null,
        "category": "entertainment"
      },
      {
        "id": 81,
        "name": "Tokyo Disneyland",
        "address": "1-1 Maihama, Urayasu, Chiba 279-0031, Japan",
        "latitude": 35.63290076001856,
        "longitude": 139.8804050290479,
        "wantToVisit": true,
        "createdAt": "2026-01-28T03:21:26.239Z",
        "updatedAt": "2026-01-28T03:21:26.239Z",
        "notes": null,
        "category": "entertainment"
      },
      {
        "id": 82,
        "name": "Tokyo Metropolitan Government Building North Observation Deck",
        "address": "Japan, 〒163-8001 Tokyo, Shinjuku City, Nishishinjuku, 2 Chome−8−1 Tochomae Station, 45F",
        "latitude": 35.68972425875517,
        "longitude": 139.69164556907,
        "wantToVisit": false,
        "createdAt": "2026-01-28T03:22:17.302Z",
        "updatedAt": "2026-01-28T03:22:17.302Z",
        "notes": null,
        "category": "entertainment"
      },
      {
        "id": 83,
        "name": "Uguisu Waterfall",
        "address": "306 Kawakamicho, Nara, 630-8202, Japan",
        "latitude": 34.68914542492917,
        "longitude": 135.8735477145786,
        "wantToVisit": false,
        "createdAt": "2026-01-28T03:22:34.471Z",
        "updatedAt": "2026-01-28T03:22:34.471Z",
        "notes": null,
        "category": "entertainment"
      },
      {
        "id": 84,
        "name": "Umeda Sky Building",
        "address": "1 Chome-1-88 Oyodonaka, Kita Ward, Osaka, 531-6023, Japan",
        "latitude": 34.70526512270705,
        "longitude": 135.4896097825385,
        "wantToVisit": false,
        "createdAt": "2026-01-28T03:23:00.857Z",
        "updatedAt": "2026-01-28T03:23:00.857Z",
        "notes": null,
        "category": "entertainment"
      },
      {
        "id": 85,
        "name": "Universal Studios Japan",
        "address": "2 Chome-1-33 Sakurajima, Konohana Ward, Osaka, 554-0031, Japan",
        "latitude": 34.66569139635659,
        "longitude": 135.4322705239904,
        "wantToVisit": false,
        "createdAt": "2026-01-28T03:23:24.024Z",
        "updatedAt": "2026-01-28T03:23:24.024Z",
        "notes": null,
        "category": "entertainment"
      },
      {
        "id": 86,
        "name": "Wakakusayama Hill",
        "address": "Zoshicho, Nara, 630-8211, Japan",
        "latitude": 34.69001669464041,
        "longitude": 135.8538941978843,
        "wantToVisit": false,
        "createdAt": "2026-01-28T03:23:44.434Z",
        "updatedAt": "2026-01-28T03:23:44.434Z",
        "notes": null,
        "category": "entertainment"
      },
      {
        "id": 87,
        "name": "Wisteria at Osaka Castle Park",
        "address": "3 Osakajo, Chuo Ward, Osaka, 540-0002, Japan",
        "latitude": 34.68701495089644,
        "longitude": 135.5303760267207,
        "wantToVisit": false,
        "createdAt": "2026-01-28T03:24:03.171Z",
        "updatedAt": "2026-01-28T03:24:03.171Z",
        "notes": null,
        "category": "entertainment"
      },
      {
        "id": 88,
        "name": "Yasaka Pagoda (Gojunoto), Hōkan-ji Temple",
        "address": "Yasaka Kamimachi, Higashiyama Ward, Kyoto, 605-0827, Japan",
        "latitude": 34.99850393206587,
        "longitude": 135.7792417961543,
        "wantToVisit": false,
        "createdAt": "2026-01-28T03:24:26.518Z",
        "updatedAt": "2026-01-28T03:24:26.518Z",
        "notes": null,
        "category": "entertainment"
      },
      {
        "id": 89,
        "name": "Yasaka Shrine",
        "address": "625 Gionmachi Kitagawa, Higashiyama Ward, Kyoto, 605-0073, Japan",
        "latitude": 35.00366905504913,
        "longitude": 135.7785533978913,
        "wantToVisit": false,
        "createdAt": "2026-01-28T03:24:45.584Z",
        "updatedAt": "2026-01-28T03:24:45.584Z",
        "notes": null,
        "category": "entertainment"
      },
      {
        "id": 90,
        "name": "NARUTO×BORUTO FUJI HIDDEN VILLAGE OF KONOHA",
        "address": "Japan, 〒403-0017 Yamanashi, Fujiyoshida, Shinnishihara, 5 Chome−6−1 富士急ハイランド",
        "latitude": 35.48770880850262,
        "longitude": 138.7820078267387,
        "wantToVisit": false,
        "createdAt": "2026-01-28T02:13:57.699Z",
        "updatedAt": "2026-02-05T00:59:54.073Z",
        "notes": null,
        "category": "entertainment"
      },
      {
        "id": 91,
        "name": "American Diner Andra (Burger with cheese plate)",
        "address": "5 Chome-13-7 Higashiueno, Taito City, Tokyo 110-0015, Japan",
        "latitude": 35.71363300188121,
        "longitude": 139.7813339128944,
        "wantToVisit": true,
        "createdAt": "2026-01-28T03:26:13.434Z",
        "updatedAt": "2026-01-28T03:26:13.434Z",
        "notes": null,
        "category": "food"
      },
      {
        "id": 92,
        "name": "Dekasan (Sandwiches)",
        "address": "3 Chome-5-17 Kawarayamachi, Chuo Ward, Osaka, 542-0066, Japan",
        "latitude": 34.66972173337596,
        "longitude": 135.5118794386183,
        "wantToVisit": false,
        "createdAt": "2026-01-28T03:27:48.234Z",
        "updatedAt": "2026-01-28T03:27:48.234Z",
        "notes": null,
        "category": "food"
      },
      {
        "id": 93,
        "name": "DOTONBORI KUROFUNE (Unagi bowl)",
        "address": "1 Chome-4-21 Higashishinsaibashi, Chuo Ward, Osaka, 542-0083, Japan",
        "latitude": 34.67324550948796,
        "longitude": 135.5053571798642,
        "wantToVisit": false,
        "createdAt": "2026-01-28T03:28:26.094Z",
        "updatedAt": "2026-01-28T03:28:26.094Z",
        "notes": null,
        "category": "food"
      },
      {
        "id": 94,
        "name": "Tsukiji Market (Fish Market)",
        "address": "4 Chome-14 Tsukiji, Chuo City, Tokyo 104-0045, Japan",
        "latitude": 35.66495470733098,
        "longitude": 139.7709783843966,
        "wantToVisit": false,
        "createdAt": "2026-01-28T03:29:00.129Z",
        "updatedAt": "2026-01-28T03:29:00.129Z",
        "notes": null,
        "category": "food"
      },
      {
        "id": 95,
        "name": "Ginza Kagari - Soba",
        "address": "6 Chome-4-12 Ginza, Chuo City, Tokyo 104-0061, Japan",
        "latitude": 35.67119308607315,
        "longitude": 139.7613422147433,
        "wantToVisit": false,
        "createdAt": "2026-01-28T03:29:27.404Z",
        "updatedAt": "2026-01-28T03:29:27.404Z",
        "notes": null,
        "category": "food"
      },
      {
        "id": 96,
        "name": "Gyukatsu Motomura Namba Branch",
        "address": "Japan, 〒542-0076 Osaka, Chuo Ward, Namba, 3 Chome−3−1 スガタビル B1F",
        "latitude": 34.66661683500029,
        "longitude": 135.5019609592123,
        "wantToVisit": false,
        "createdAt": "2026-01-28T03:30:03.950Z",
        "updatedAt": "2026-02-11T05:28:42.064Z",
        "notes": "Tonkatsu",
        "category": "food"
      },
      {
        "id": 97,
        "name": "Izumo Ikebukuro (Unagi)",
        "address": "1 Chome-13-7 Nishiikebukuro, Toshima City, Tokyo 171-0021, Japan",
        "latitude": 35.72998108008252,
        "longitude": 139.7095566706147,
        "wantToVisit": false,
        "createdAt": "2026-01-28T03:31:24.475Z",
        "updatedAt": "2026-01-28T03:31:24.475Z",
        "notes": null,
        "category": "food"
      },
      {
        "id": 98,
        "name": "Kanya COFFEE",
        "address": "Japan, 〒540-0012 Osaka, Chuo Ward, Tanimachi, 2 Chome−3−12 マルイト谷町ビル 1F",
        "latitude": 34.68554668804858,
        "longitude": 135.5177047206246,
        "wantToVisit": false,
        "createdAt": "2026-01-28T03:32:15.578Z",
        "updatedAt": "2026-01-28T03:32:15.578Z",
        "notes": null,
        "category": "food"
      },
      {
        "id": 99,
        "name": "KFC Nishi-Shinjuku (JJK)",
        "address": "1 Chome-2-10 Nishishinjuku, Shinjuku City, Tokyo 160-0023, Japan",
        "latitude": 35.69295537035735,
        "longitude": 139.6993989132675,
        "wantToVisit": true,
        "createdAt": "2026-01-28T03:34:12.397Z",
        "updatedAt": "2026-01-28T03:34:12.397Z",
        "notes": null,
        "category": "food"
      },
      {
        "id": 100,
        "name": "Kichi Kichi Omurice",
        "address": "185-4 Zaimokucho, Nakagyo Ward, Kyoto, 604-8017, Japan",
        "latitude": 35.00726119728224,
        "longitude": 135.7708107978913,
        "wantToVisit": true,
        "createdAt": "2026-01-28T03:34:32.682Z",
        "updatedAt": "2026-01-28T03:34:32.682Z",
        "notes": null,
        "category": "food"
      },
      {
        "id": 101,
        "name": "Kobe Beef Steak Ishida. Ikutashinmichi-shop",
        "address": "Japan, 〒650-0011 Hyogo, Kobe, Chuo Ward, Shimoyamatedori, 2 Chome−1−14 Arc Coast, 2F",
        "latitude": 34.69310608597347,
        "longitude": 135.1909859058996,
        "wantToVisit": false,
        "createdAt": "2026-01-28T03:34:54.959Z",
        "updatedAt": "2026-01-28T03:34:54.959Z",
        "notes": null,
        "category": "food"
      },
      {
        "id": 102,
        "name": "Kobe Beef Steak Sakura",
        "address": "Japan, 〒650-0011 Hyogo, Kobe, Chuo Ward, Shimoyamatedori, 2 Chome−17−10 2F 三ノ宮 神戸牛ステーキ 神戸牛専門 ランチ ディナー 鉄板焼き 接待 高級 コース",
        "latitude": 34.69427484384399,
        "longitude": 135.1899405157824,
        "wantToVisit": false,
        "createdAt": "2026-01-28T03:35:17.318Z",
        "updatedAt": "2026-01-28T03:35:17.318Z",
        "notes": null,
        "category": "food"
      },
      {
        "id": 103,
        "name": "Kobe beef steak Tramatsu no nikutarashi",
        "address": "Japan, 〒650-0012 Hyogo, Kobe, Chuo Ward, Kitanagasadori, 2 Chome−4−5 大永ビル 3F 神戸牛 ランチ",
        "latitude": 34.69199825948092,
        "longitude": 135.1903910892391,
        "wantToVisit": false,
        "createdAt": "2026-01-28T03:35:39.170Z",
        "updatedAt": "2026-01-28T03:35:39.170Z",
        "notes": null,
        "category": "food"
      },
      {
        "id": 104,
        "name": "KOKUBU Steak House",
        "address": "1 Chome-21-2 Kitanagasadori, Chuo Ward, Kobe, Hyogo 650-0012, Japan",
        "latitude": 34.69420491240543,
        "longitude": 135.1925654164837,
        "wantToVisit": false,
        "createdAt": "2026-01-28T03:36:01.440Z",
        "updatedAt": "2026-01-28T03:36:01.440Z",
        "notes": null,
        "category": "food"
      },
      {
        "id": 105,
        "name": "Kurikoan (Taiyaki Magicarp)",
        "address": "Japan, 〒101-0021 Tokyo, Chiyoda City, Sotokanda, 1 Chome−15−1 1F",
        "latitude": 35.69778769802073,
        "longitude": 139.7714308178803,
        "wantToVisit": true,
        "createdAt": "2026-01-28T03:36:37.328Z",
        "updatedAt": "2026-01-28T03:36:37.328Z",
        "notes": null,
        "category": "food"
      },
      {
        "id": 106,
        "name": "Kyoto Tempura Ten no Meshi Gionhonten (Tempura)",
        "address": "Japan, 〒605-0073 Kyoto, Higashiyama Ward, Gionmachi Kitagawa, 255",
        "latitude": 35.00422866114433,
        "longitude": 135.7744494794872,
        "wantToVisit": true,
        "createdAt": "2026-01-28T03:37:07.020Z",
        "updatedAt": "2026-01-28T03:37:14.736Z",
        "notes": null,
        "category": "food"
      },
      {
        "id": 107,
        "name": "Men-ya Inoichi (Michelin Ramen)",
        "address": "542 Ebisunocho, Shimogyo Ward, Kyoto, 600-8033, Japan",
        "latitude": 35.00132827209011,
        "longitude": 135.7669363471402,
        "wantToVisit": true,
        "createdAt": "2026-01-28T03:37:52.262Z",
        "updatedAt": "2026-01-28T03:37:52.262Z",
        "notes": null,
        "category": "food"
      },
      {
        "id": 108,
        "name": "MOTOI Gyoza (Pot Stickers)",
        "address": "470-2 Setoyacho, Nakagyo Ward, Kyoto, 604-8122, Japan",
        "latitude": 35.00439103254035,
        "longitude": 135.7641454281213,
        "wantToVisit": true,
        "createdAt": "2026-01-28T03:38:15.786Z",
        "updatedAt": "2026-01-28T03:38:15.786Z",
        "notes": null,
        "category": "food"
      },
      {
        "id": 109,
        "name": "Shabu-shabu & Sukiyaki & Sushi Restaurant (Wagyu ShabuShabu)",
        "address": "Japan, 〒530-0057 Osaka, Kita Ward, Sonezaki, 2 Chome−5−20 お初天神ビル 3F",
        "latitude": 34.69948222241921,
        "longitude": 135.500830329391,
        "wantToVisit": false,
        "createdAt": "2026-01-28T03:38:48.192Z",
        "updatedAt": "2026-01-28T03:38:48.192Z",
        "notes": null,
        "category": "food"
      },
      {
        "id": 110,
        "name": "Nikugoro Wagyu Yakiniku",
        "address": "5 Chome-2-14 Tenjinbashi, Kita Ward, Osaka, 530-0041, Japan",
        "latitude": 34.70731096455685,
        "longitude": 135.51218074187,
        "wantToVisit": false,
        "createdAt": "2026-01-28T03:39:16.059Z",
        "updatedAt": "2026-01-28T03:39:16.059Z",
        "notes": null,
        "category": "food"
      },
      {
        "id": 111,
        "name": "Ninjomenya Gyukotsuo (Ramen)",
        "address": "1 Chome-12-27 Minamisenba, Chuo Ward, Osaka, 542-0081, Japan",
        "latitude": 34.6766909422393,
        "longitude": 135.507892496156,
        "wantToVisit": false,
        "createdAt": "2026-01-28T03:39:45.443Z",
        "updatedAt": "2026-01-28T03:39:45.443Z",
        "notes": null,
        "category": "food"
      },
      {
        "id": 112,
        "name": "Dining Bar Oasis (Bar and Grill)",
        "address": "Japan, 〒542-0083 Osaka, Chuo Ward, Higashishinsaibashi, 2 Chome−5−29 Nippo 周防町ビル 1階",
        "latitude": 34.67181421850841,
        "longitude": 135.5037558437693,
        "wantToVisit": false,
        "createdAt": "2026-01-28T03:40:33.264Z",
        "updatedAt": "2026-01-28T03:40:33.264Z",
        "notes": null,
        "category": "food"
      },
      {
        "id": 113,
        "name": "Onigiri Gorichan",
        "address": "Japan, 〒542-0081 Osaka, Chuo Ward, Minamisenba, 3 Chome−5−28 富士ビル南船場 1階",
        "latitude": 34.67585859956875,
        "longitude": 135.5021959699206,
        "wantToVisit": false,
        "createdAt": "2026-01-28T03:40:55.533Z",
        "updatedAt": "2026-01-28T03:40:55.533Z",
        "notes": null,
        "category": "food"
      },
      {
        "id": 114,
        "name": "Yatai Rāmen Shunya Chan",
        "address": "1277-8 Hatsuzawamachi, Hachioji, Tokyo 193-0845, Japan",
        "latitude": 35.64139857260379,
        "longitude": 139.2858434267422,
        "wantToVisit": false,
        "createdAt": "2026-01-28T03:41:18.853Z",
        "updatedAt": "2026-01-28T03:41:18.853Z",
        "notes": null,
        "category": "food"
      },
      {
        "id": 115,
        "name": "Red Rock Harajuku (Kobe Rice Bowl)",
        "address": "Hulic Aoyama Building, 地下１階, 3 Chome-25-12 Jingumae, Shibuya, Tokyo 150-0001, Japan",
        "latitude": 35.67140658708834,
        "longitude": 139.707822612627,
        "wantToVisit": true,
        "createdAt": "2026-01-28T03:42:09.171Z",
        "updatedAt": "2026-01-28T03:42:09.171Z",
        "notes": null,
        "category": "food"
      },
      {
        "id": 116,
        "name": "Rare Tendon Ginza Mitsuyoshi",
        "address": "Japan, 〒104-0061 Tokyo, Chuo City, Ginza, 6 Chome−3−15 昭和イーティングビル １階",
        "latitude": 35.67146124096767,
        "longitude": 139.7608850437783,
        "wantToVisit": true,
        "createdAt": "2026-01-28T03:41:43.602Z",
        "updatedAt": "2026-01-28T03:42:17.518Z",
        "notes": null,
        "category": "food"
      },
      {
        "id": 117,
        "name": "SAKURA BURGER",
        "address": "Japan, 〒630-8214 Nara, Higashimuki Kitamachi, 6 東向北商店街",
        "latitude": 34.68489469802893,
        "longitude": 135.8287699427953,
        "wantToVisit": false,
        "createdAt": "2026-01-28T03:42:36.806Z",
        "updatedAt": "2026-01-28T03:42:36.806Z",
        "notes": null,
        "category": "food"
      },
      {
        "id": 118,
        "name": "Sandaime Dotombori-ikkyu",
        "address": "Japan, 〒542-0071 Osaka, Chuo Ward, Dotonbori, 1 Chome−5−7 B1F",
        "latitude": 34.66885416942367,
        "longitude": 135.5035799784648,
        "wantToVisit": false,
        "createdAt": "2026-01-28T03:43:04.499Z",
        "updatedAt": "2026-02-11T05:28:02.513Z",
        "notes": "Meat Skewer?",
        "category": "food"
      },
      {
        "id": 119,
        "name": "Shabu Shabu Onyasai Dotonbori",
        "address": "Japan, 〒542-0084 Osaka, Chuo Ward, Souemoncho, 7−6 菱富ビル 4Ｆ",
        "latitude": 34.66938735311396,
        "longitude": 135.5018665022349,
        "wantToVisit": false,
        "createdAt": "2026-01-28T03:43:28.510Z",
        "updatedAt": "2026-01-28T03:43:28.510Z",
        "notes": null,
        "category": "food"
      },
      {
        "id": 120,
        "name": "Shibuya Yokocho (Food Court)",
        "address": "Japan, 〒150-0001 Tokyo, Shibuya, Jingumae, 6 Chome−20−10 South 1F RAYARD MIYASHITA PARK",
        "latitude": 35.66060607833994,
        "longitude": 139.7017831998373,
        "wantToVisit": false,
        "createdAt": "2026-01-28T03:43:53.036Z",
        "updatedAt": "2026-01-28T03:43:53.036Z",
        "notes": null,
        "category": "food"
      },
      {
        "id": 121,
        "name": "STEAK HOUSE ORIENTAL",
        "address": "5-6 Hatobacho, Chuo Ward, Kobe, Hyogo 650-0042, Japan",
        "latitude": 34.67977721736811,
        "longitude": 135.1886117649469,
        "wantToVisit": false,
        "createdAt": "2026-01-28T03:44:19.479Z",
        "updatedAt": "2026-01-28T03:44:19.479Z",
        "notes": null,
        "category": "food"
      },
      {
        "id": 122,
        "name": "Hiro Sushi",
        "address": "1 Chome-3-14 Oyodominami, Kita Ward, Osaka, 531-0075, Japan",
        "latitude": 34.70384431599621,
        "longitude": 135.4905554071263,
        "wantToVisit": false,
        "createdAt": "2026-01-28T03:44:57.556Z",
        "updatedAt": "2026-01-28T03:44:57.556Z",
        "notes": null,
        "category": "food"
      },
      {
        "id": 123,
        "name": "TACOS 3Hermanos Asakusa",
        "address": "Japan, 〒111-0034 Tokyo, Taito City, Kaminarimon, 2 Chome−1−11 River Terrace 1F",
        "latitude": 35.71002592745706,
        "longitude": 139.7977043546233,
        "wantToVisit": false,
        "createdAt": "2026-01-28T03:45:34.083Z",
        "updatedAt": "2026-01-28T03:45:34.083Z",
        "notes": null,
        "category": "food"
      },
      {
        "id": 124,
        "name": "Tor Road Steak Aoyama",
        "address": "Japan, 〒650-0011 Hyogo, Kobe, Chuo Ward, Shimoyamatedori, 2 Chome−14−5 永和ビル",
        "latitude": 34.69379452790897,
        "longitude": 135.1885874507456,
        "wantToVisit": false,
        "createdAt": "2026-01-28T03:45:58.928Z",
        "updatedAt": "2026-01-28T03:45:58.928Z",
        "notes": null,
        "category": "food"
      },
      {
        "id": 125,
        "name": "WAGYU YAKINIKU NIKUTARASHI",
        "address": "Japan, 〒151-0053 Tokyo, Shibuya, Yoyogi, 1 Chome−34−3 第17菊地ビル 1F",
        "latitude": 35.68314470126863,
        "longitude": 139.7019347442734,
        "wantToVisit": false,
        "createdAt": "2026-01-28T03:46:55.586Z",
        "updatedAt": "2026-01-28T03:46:55.586Z",
        "notes": null,
        "category": "food"
      },
      {
        "id": 126,
        "name": "Wagyu Halal Japanese Food Shinjuku Restaurant",
        "address": "5 Chome-8-7 Shinjuku, Shinjuku City, Tokyo 160-0022, Japan",
        "latitude": 35.69250800659852,
        "longitude": 139.709025361864,
        "wantToVisit": false,
        "createdAt": "2026-01-28T03:47:21.123Z",
        "updatedAt": "2026-01-28T03:47:21.123Z",
        "notes": null,
        "category": "food"
      },
      {
        "id": 127,
        "name": "Yakiniku Hanamichi",
        "address": "Japan, 〒542-0085 Osaka, Chuo Ward, Shinsaibashisuji, 2 Chome−3−12 ダイヤモンドビル 2F",
        "latitude": 34.66968508403426,
        "longitude": 135.5019402288649,
        "wantToVisit": false,
        "createdAt": "2026-01-28T03:47:48.645Z",
        "updatedAt": "2026-01-28T03:47:48.645Z",
        "notes": null,
        "category": "food"
      },
      {
        "id": 128,
        "name": "BRISKSTAND ASAKUSA (Burger)",
        "address": "2 Chome-9-16 Kotobuki, Taito City, Tokyo 111-0042, Japan",
        "latitude": 35.70940446455138,
        "longitude": 139.790280251842,
        "wantToVisit": false,
        "createdAt": "2026-02-02T03:01:41.664Z",
        "updatedAt": "2026-02-02T03:01:41.664Z",
        "notes": null,
        "category": "food"
      },
      {
        "id": 129,
        "name": "Kaiten Sushi Sakae",
        "address": "Japan, 〒530-0027 Osaka, Kita Ward, Doyamacho, 3−12 4階",
        "latitude": 34.70273135043106,
        "longitude": 135.5027968434443,
        "wantToVisit": true,
        "createdAt": "2026-02-02T04:26:35.731Z",
        "updatedAt": "2026-02-02T04:31:14.897Z",
        "notes": "Hamachi (Yellowtail) sushi",
        "category": "food"
      },
      {
        "id": 130,
        "name": "Wagyu IDATEN",
        "address": "Japan, 〒542-0076 Osaka, Chuo Ward, Namba, 1 Chome−8−20 嘉光ビル 2階",
        "latitude": 34.66775611019468,
        "longitude": 135.5010457390636,
        "wantToVisit": true,
        "createdAt": "2026-01-28T03:46:24.028Z",
        "updatedAt": "2026-02-11T05:29:08.706Z",
        "notes": "Wagyu Bowl",
        "category": "food"
      },
      {
        "id": 131,
        "name": "TOYOTA Rent a Car Kyoto Sta. Shinkansen",
        "address": "31-1 Higashikujo Kamitonodacho, Minami Ward, Kyoto, 601-8002, Japan",
        "latitude": 34.98256600484728,
        "longitude": 135.7595816671204,
        "wantToVisit": false,
        "createdAt": "2026-02-02T01:44:36.319Z",
        "updatedAt": "2026-02-02T01:44:36.319Z",
        "notes": null,
        "category": "carRentals"
      },
      {
        "id": 132,
        "name": "OnlyJDM Car Rental Haneda",
        "address": "2 Chome-20-14 Omoriminami, Ota City, Tokyo 143-0013, Japan",
        "latitude": 35.5614499608225,
        "longitude": 139.7416048537934,
        "wantToVisit": false,
        "createdAt": "2026-02-02T01:47:36.838Z",
        "updatedAt": "2026-02-02T01:47:36.838Z",
        "notes": null,
        "category": "carRentals"
      },
      {
        "id": 133,
        "name": "Toyota Rent a Car Return",
        "address": "3 Chome-8-2 Azumabashi, Sumida City, Tokyo 130-0001, Japan",
        "latitude": 35.70932427608252,
        "longitude": 139.804342898045,
        "wantToVisit": false,
        "createdAt": "2026-02-02T02:12:08.419Z",
        "updatedAt": "2026-02-02T02:12:08.419Z",
        "notes": null,
        "category": "carRentals"
      },
      {
        "id": 134,
        "name": "TOKYO KIMONO SHOES",
        "address": "2 Chome-16-3 Hanakawado, Taito City, Tokyo 111-0033, Japan",
        "latitude": 35.71490492417817,
        "longitude": 139.8010748282412,
        "wantToVisit": false,
        "createdAt": "2026-02-02T02:03:58.567Z",
        "updatedAt": "2026-02-02T02:03:58.567Z",
        "notes": null,
        "category": "shopping"
      },
      {
        "id": 135,
        "name": "Indigo Ninja (Shopping)",
        "address": "2 Chome-11-9 Hanakawado, Taito City, Tokyo 111-0033, Japan",
        "latitude": 35.7148846047846,
        "longitude": 139.8004203059363,
        "wantToVisit": true,
        "createdAt": "2026-02-02T02:04:04.828Z",
        "updatedAt": "2026-02-02T02:04:04.828Z",
        "notes": null,
        "category": "shopping"
      },
      {
        "id": 136,
        "name": "Kimono Reborn Tokyo (Shopping)",
        "address": "101 2 Chome-3-10 Hanakawado, Taito City, Tokyo 111-0033, Japan",
        "latitude": 35.71403162675136,
        "longitude": 139.800652483803,
        "wantToVisit": true,
        "createdAt": "2026-02-02T02:04:35.844Z",
        "updatedAt": "2026-02-02T02:04:35.844Z",
        "notes": null,
        "category": "shopping"
      },
      {
        "id": 137,
        "name": "DiverCity Tokyo Plaza (Gundum Mall)",
        "address": "1 Chome-1-10 Aomi, Koto City, Tokyo 135-0064, Japan",
        "latitude": 35.62476756013778,
        "longitude": 139.7758658147355,
        "wantToVisit": false,
        "createdAt": "2026-02-02T02:04:41.155Z",
        "updatedAt": "2026-02-02T02:04:41.155Z",
        "notes": null,
        "category": "shopping"
      },
      {
        "id": 138,
        "name": "GINZA SIX (Mall)",
        "address": "6 Chome-10-1 Ginza, Chuo City, Tokyo 104-0061, Japan",
        "latitude": 35.66974262455155,
        "longitude": 139.7641761979061,
        "wantToVisit": false,
        "createdAt": "2026-02-02T02:04:43.879Z",
        "updatedAt": "2026-02-02T02:04:43.879Z",
        "notes": null,
        "category": "shopping"
      },
      {
        "id": 139,
        "name": "Teramachi Shopping Street (Mall)",
        "address": "Nakagyo Ward, Kyoto, 600-8003, Japan",
        "latitude": 35.00378424768334,
        "longitude": 135.7668696868671,
        "wantToVisit": false,
        "createdAt": "2026-02-02T02:04:46.984Z",
        "updatedAt": "2026-02-02T02:04:46.984Z",
        "notes": null,
        "category": "shopping"
      },
      {
        "id": 140,
        "name": "Chopsticks & tableware - Made in Japan",
        "address": "Japan, 〒605-0074 Kyoto, Higashiyama Ward, Gionmachi Minamigawa, 582-2 一階部分",
        "latitude": 35.00365530272864,
        "longitude": 135.773667814631,
        "wantToVisit": true,
        "createdAt": "2026-02-02T02:10:10.820Z",
        "updatedAt": "2026-02-02T02:10:10.820Z",
        "notes": null,
        "category": "shopping"
      },
      {
        "id": 141,
        "name": "Don Quijote Akihabara",
        "address": "4 Chome-3-3 Sotokanda, Chiyoda City, Tokyo 101-0021, Japan",
        "latitude": 35.7007649667861,
        "longitude": 139.7717176979069,
        "wantToVisit": false,
        "createdAt": "2026-02-02T02:10:15.453Z",
        "updatedAt": "2026-02-02T02:10:15.453Z",
        "notes": null,
        "category": "shopping"
      },
      {
        "id": 142,
        "name": "Don Quijote Dotonbori Midosuji",
        "address": "2 Chome-5-9 Nishishinsaibashi, Chuo Ward, Osaka, 542-0086, Japan",
        "latitude": 34.66926279685893,
        "longitude": 135.4998932690472,
        "wantToVisit": false,
        "createdAt": "2026-02-02T02:10:20.066Z",
        "updatedAt": "2026-02-02T02:10:20.066Z",
        "notes": null,
        "category": "shopping"
      },
      {
        "id": 143,
        "name": "MEGA Don Quijote Shinsekai",
        "address": "3 Chome-4-36 Ebisuhigashi, Naniwa Ward, Osaka, 556-0002, Japan",
        "latitude": 34.65032777294117,
        "longitude": 135.5047635267199,
        "wantToVisit": true,
        "createdAt": "2026-02-02T02:10:37.597Z",
        "updatedAt": "2026-02-02T02:10:37.597Z",
        "notes": null,
        "category": "shopping"
      },
      {
        "id": 144,
        "name": "Lego Shinsaibashi",
        "address": "Japan, 〒542-0085 Osaka, Chuo Ward, Shinsaibashisuji, 1 Chome−8−3 心斎橋PARCO 6F",
        "latitude": 34.67388720314257,
        "longitude": 135.5007885722489,
        "wantToVisit": false,
        "createdAt": "2026-02-02T02:10:40.592Z",
        "updatedAt": "2026-02-02T02:10:40.592Z",
        "notes": null,
        "category": "shopping"
      },
      {
        "id": 145,
        "name": "Ginza Itoya (Stationary Store)",
        "address": "2 Chome-7-15 Ginza, Chuo City, Tokyo 104-0061, Japan",
        "latitude": 35.67312291477062,
        "longitude": 139.7671923402331,
        "wantToVisit": true,
        "createdAt": "2026-02-02T03:02:11.650Z",
        "updatedAt": "2026-02-02T03:02:11.650Z",
        "notes": null,
        "category": "shopping"
      },
      {
        "id": 146,
        "name": "Yodobashi Akiba (Shopping/Tech Store)",
        "address": "1-1 Kanda Hanaokacho, Chiyoda City, Tokyo 101-0028, Japan",
        "latitude": 35.69889519050915,
        "longitude": 139.7748194555799,
        "wantToVisit": false,
        "createdAt": "2026-02-02T03:12:38.495Z",
        "updatedAt": "2026-02-02T03:12:38.495Z",
        "notes": null,
        "category": "shopping"
      },
      {
        "id": 147,
        "name": "JJK Pop Up",
        "address": "3 Chome-8-9 Namba, Chuo Ward, Osaka, 542-0076, Japan",
        "latitude": 34.66554778294132,
        "longitude": 135.5010187080786,
        "wantToVisit": false,
        "createdAt": "2026-02-02T04:28:41.583Z",
        "updatedAt": "2026-02-02T04:28:41.583Z",
        "notes": "5F",
        "category": "shopping"
      },
      {
        "id": 148,
        "name": "Jump Shop Shibuya Parco",
        "address": "Japan, 〒150-0042 Tokyo, Shibuya, Udagawacho, 15−1 渋谷パルコ 6F",
        "latitude": 35.66183369766482,
        "longitude": 139.6987752028218,
        "wantToVisit": true,
        "createdAt": "2026-02-04T16:28:43.103Z",
        "updatedAt": "2026-02-04T16:28:43.103Z",
        "notes": "JJK Shop?",
        "category": "shopping"
      },
      {
        "id": 149,
        "name": "Joshin Super Kids Land",
        "address": "4 Chome-12-4 Nipponbashi, Naniwa Ward, Osaka, 556-0005, Japan",
        "latitude": 34.65929937221022,
        "longitude": 135.5055099554153,
        "wantToVisit": false,
        "createdAt": "2026-02-09T00:06:53.618Z",
        "updatedAt": "2026-02-09T00:06:53.618Z",
        "notes": "Model cars",
        "category": "shopping"
      },
      {
        "id": 150,
        "name": "Tenma Sushi",
        "address": "4 Chome-12-21 Tenjinbashi, Kita Ward, Osaka, 530-0041, Japan",
        "latitude": 34.70608749600476,
        "longitude": 13551202927878224,
        "wantToVisit": false,
        "createdAt": "2026-02-10T20:09:59.817Z",
        "updatedAt": "2026-02-10T20:09:59.817Z",
        "notes": null,
        "category": "food"
      },
      {
        "id": 152,
        "name": "Highland Resort Hotel & Spa",
        "address": "5 Chome-6-1 Shinnishihara, Fujiyoshida, Minamitsuru District, Yamanashi 403-0017, Japan",
        "latitude": 35.48459649999999,
        "longitude": 138.7781016,
        "wantToVisit": false,
        "createdAt": "2026-02-11T04:03:49.469Z",
        "updatedAt": "2026-02-11T04:03:49.469Z",
        "notes": null,
        "category": "hotels"
      },
      {
        "id": 153,
        "name": "Hakone Turnpike",
        "address": "Japan, 〒250-0021 Kanagawa, Odawara, Hayakawa, 2 Chome−２２−1",
        "latitude": 35.2422246,
        "longitude": 139.1405673,
        "wantToVisit": false,
        "createdAt": "2026-02-12T03:47:26.434Z",
        "updatedAt": "2026-02-12T03:47:26.434Z",
        "notes": null,
        "category": "carRentals"
      },
      {
        "id": 155,
        "name": "Yamaya",
        "address": "〒160-0023 東京都新宿区 西新宿3丁目2番7号 KDX新宿ビル1F",
        "latitude": 35.6866808,
        "longitude": 139.6937978,
        "wantToVisit": false,
        "createdAt": "2026-02-27T01:07:27.120Z",
        "updatedAt": "2026-02-27T01:07:27.120Z",
        "notes": null,
        "category": "shopping"
      }
    ]
  }
}